[
      {
         "district": "Barguna",
         "cases": 918,
         "lat":22.0953, 
         "lon":90.1121
      },
      {
         "district": "Barishal",
         "cases": 3633,
         "lat":22.7010, 
         "lon":90.3535
      },
      {
         "district": "Bhola",
         "cases": 745,
         "lat":22.685923, 
         "lon":90.64817
      },
      {
         "district": "Jhalokati",
         "cases": 716,
         "lat":22.6406,
         "lon":90.1987
      },
      {
         "district": "Patuakhali",
         "cases": 1455,
         "lat":22.3596316, 
         "lon":90.3298712
      },
      {
         "district": "Pirojpur",
         "cases": 1094,
         "lat":22.5841,
         "lon":89.9720

      },
      {
         "district": "Bandarban",
         "cases": 770,
         "lat":22.1953275, 
         "lon":92.2183773
      },
      {
         "district": "Brahmanbaria",
         "cases": 2470,
         "lat":23.9570904, 
         "lon":91.1119286
      },
      {
         "district": "Chandpur",
         "cases": 2330,
         "lat":23.2332585, 
         "lon":90.6712912
      },
      {
         "district": "Chattogram",
         "cases": 19708,
         "lat":22.335109, 
         "lon":91.834073
      },
      {
         "district": "Cox's Bazar",
         "cases": 4855,
         "lat":21.4272, 
         "lon":92.0058
      },
      {
         "district": "Cumilla",
         "cases": 7670,
         "lat":23.4682747, 
         "lon":91.1788135
      },
      {
         "district": "Feni",
         "cases": 1899,
         "lat":23.023231, 
         "lon":91.3840844
      },
      {
         "district": "Khagrachhari",
         "cases": 696,
         "lat":23.119285, 
         "lon":91.984663
      },
      {
         "district": "Lakshmipur",
         "cases": 2158,
         "lat":22.942477, 
         "lon":90.841184
      },
      {
         "district": "Noakhali",
         "cases": 5027,
         "lat":22.869563, 
         "lon":91.099398
      },
      {
         "district": "Rangamati",
         "cases": 915,
         "lat":22.6533, 
         "lon":92.1789
      },
      {
         "district": "Dhaka",
         "cases": 109183,
         "lat":23.7115253, 
         "lon":90.4111451
      },
      {
         "district": "Faridpur",
         "cases": 7268,
         "lat":23.6070822, 
         "lon":89.8429406
      },
      {
         "district": "Gazipur",
         "cases": 5539,
         "lat":24.0022858, 
         "lon":90.4264283
      },
      {
         "district": "Gopalganj",
         "cases": 2622,
         "lat":23.0050857, 
         "lon":89.8266059
      },
      {
         "district": "Kishorgonj",
         "cases": 2895,
         "lat":24.444937, 
         "lon":90.776575
      },
      {
         "district": "Madaripur",
         "cases": 1479,
         "lat":23.164102, 
         "lon":90.1896805
      },
      {
         "district": "Manikganj",
         "cases": 1527,
         "lat":23.8644, 
         "lon":90.0047
      },
      {
         "district": "Munshiganj",
         "cases": 3555,
         "lat":23.5422, 
         "lon":90.5305
      },
      {
         "district": "Narayanganj",
         "cases": 6923,
         "lat":23.63366, 
         "lon":90.496482
      },
      {
         "district": "Narsingdi",
         "cases": 2381,
         "lat":23.932233, 
         "lon":90.71541
      },
      {
         "district": "Rajbari",
         "cases": 3113,
         "lat":23.7574305, 
         "lon":89.6444665
      },
      {
         "district": "Shariatpur",
         "cases": 1728,
         "lat":23.2423,
         "lon":90.4348

      },
      {
         "district": "Tangail",
         "cases": 3210,
         "lat":24.2513,
         "lon":89.9167
      },
      {
         "district": "Bagerhat",
         "cases": 1006,
         "lat":22.651568, 
         "lon":89.785938
      },
      {
         "district": "Chuadanga",
         "cases": 1458,
         "lat":23.6401961, 
         "lon":88.841841
      },
      {
         "district": "Jashore",
         "cases": 3998,
         "lat":23.16643, 
         "lon":89.2081126
      },
      {
         "district": "Jhenaidah",
         "cases": 1976,
         "lat":23.5448176, 
         "lon":89.1539213
      },
      {
         "district": "Khulna",
         "cases": 6500,
         "lat":22.815774,
         "lon":89.568679
      },
      {
         "district": "Kushtia",
         "cases": 3355,
         "lat":23.901258, 
         "lon":89.12048
      },
      {
         "district": "Magura",
         "cases": 828,
         "lat":23.487337, 
         "lon":89.419956
      },
      {
         "district": "Meherpur",
         "cases": 601,
         "lat":23.762213, 
         "lon":88.631821
      },
      {
         "district": "Narail",
         "cases": 1325,
         "lat":23.172534, 
         "lon":89.512672
      },
      {
         "district": "Satkhira",
         "cases": 1093
      },
      {
         "district": "Jamalpur",
         "cases": 1609,
         "lat":24.937533, 
         "lon":89.937775
      },
      {
         "district": "Mymensingh",
         "cases": 3744,
         "lat":24.7465670, 
         "lon":90.4072093
      },
      {
         "district": "Netrakona",
         "cases": 722,
         "lat":24.870955, 
         "lon":90.727887
      },
      {
         "district": "Sherpur",
         "cases": 484,
         "lat":25.0204933, 
         "lon":90.0152966
      },
      {
         "district": "Bogura",
         "cases": 7798,
         "lat":24.8465228, 
         "lon":89.377755
      },
      {
         "district": "Chapai Nawabganj",
         "cases": 782,
         "lat":24.5965034, 
         "lon":88.2775122
      },
      {
         "district": "Joypurhat",
         "cases": 1116, 
         "lat":25.0968,
         "lon":89.0227
      },
      {
         "district": "Naogaon",
         "cases": 1331,
         "lat":24.7936,
         "lon":88.9318
      },
      {
         "district": "Natore",
         "cases": 1015,
         "lat":24.420556, 
         "lon":89.000282
      },
      {
         "district": "Pabna",
         "cases": 1176,
         "lat":23.998524, 
         "lon":89.233645
      },
      {
         "district": "Rajshahi",
         "cases": 5033,
         "lat":24.3745,
         "lon":88.6042
      },
      {
         "district": "Sirajganj",
         "cases": 2200,
         "lat":24.4533978, 
         "lon":89.700681
      },
      {
         "district": "Dinajpur",
         "cases": 3492,
         "lat":25.6217061, 
         "lon":88.6354504
      },
      {
         "district": "Gaibandha",
         "cases": 1200,
         "lat":25.328751, 
         "lon":89.528088
      },
      {
         "district": "Kurigram",
         "cases": 914,
         "lat":25.805445, 
         "lon":89.63617
      },
      {
         "district": "Lalmonirhat",
         "cases": 885,
         "lat":25.9923, 
         "lon":89.2847
      },
      {
         "district": "Nilphamari",
         "cases": 1100,
         "lat":25.931794, 
         "lon":88.856006
      },
      {
         "district": "Panchagarh",
         "cases": 641,
         "lat":26.3411, 
         "lon":88.5541606
      },
      {
         "district": "Rangpur",
         "cases": 2909,
         "lat":25.7558096, 
         "lon":89.244462
      },
      {
         "district": "Thakurgaon",
         "cases": 1167,
         "lat":26.0336945, 
         "lon":88.4616834
      },
      {
         "district": "Habiganj",
         "cases": 1769,
         "lat":24.374945,
         "lon":91.41553
      },
      {
         "district": "Maulvibazar",
         "cases": 1732,
         "lat":24.482934, 
         "lon":91.777417
      },
      {
         "district": "Sunamganj",
         "cases": 2368,
         "lat":25.0658042, 
         "lon":91.3950115
      },
      {
         "district": "Sylhet",
         "cases": 7126,
         "lat":24.8897956, 
         "lon":91.8697894
      }
   
]